{"type":"FeatureCollection", "features": [
{"type":"Feature","geometry":{"type":"Point","coordinates":[133.902918,-23.801968]},"properties":{"scalerank":8,"featurecla":"Airport","type":"mid","name":"Alice Springs","abbrev":"ASP","location":"terminal","gps_code":"YBAS","iata_code":"ASP","wikipedia":"http://en.wikipedia.org/wiki/Alice_Springs_Airport","natlscale":10}},
{"type":"Feature","geometry":{"type":"Point","coordinates":[141.47040730309726,-31.998996737463017]},"properties":{"scalerank":8,"featurecla":"Airport","type":"mid","name":"Broken Hill","abbrev":"BHQ","location":"terminal","gps_code":"YBHI","iata_code":"BHQ","wikipedia":"http://en.wikipedia.org/wiki/Broken_Hill_Airport","natlscale":10}},
{"type":"Feature","geometry":{"type":"Point","coordinates":[148.569717,-32.218681]},"properties":{"scalerank":8,"featurecla":"Airport","type":"mid","name":"Dubbo","abbrev":"DBO","location":"approximate","gps_code":"YSDU","iata_code":"DBO","wikipedia":"http://en.wikipedia.org/wiki/Dubbo_Airport","natlscale":10}},
{"type":"Feature","geometry":{"type":"Point","coordinates":[153.5128762643033,-28.166516854020163]},"properties":{"scalerank":8,"featurecla":"Airport","type":"mid","name":"Gold Coast","abbrev":"OOL","location":"terminal","gps_code":"YBCG","iata_code":"OOL","wikipedia":"http://en.wikipedia.org/wiki/Gold_Coast_Airport","natlscale":10}},
{"type":"Feature","geometry":{"type":"Point","coordinates":[150.478897,-23.378599]},"properties":{"scalerank":8,"featurecla":"Airport","type":"mid","name":"Rockhampton","abbrev":"ROK","location":"terminal","gps_code":"YBRK","iata_code":"ROK","wikipedia":"http://en.wikipedia.org/wiki/Rockhampton_Airport","natlscale":10}},
{"type":"Feature","geometry":{"type":"Point","coordinates":[147.50599619040787,-42.83760836948221]},"properties":{"scalerank":7,"featurecla":"Airport","type":"mid","name":"Hobart Int'l","abbrev":"HBA","location":"terminal","gps_code":"YMHB","iata_code":"HBA","wikipedia":"http://en.wikipedia.org/wiki/Hobart_International_Airport","natlscale":15}},
{"type":"Feature","geometry":{"type":"Point","coordinates":[146.77067890477002,-19.256181437621244]},"properties":{"scalerank":7,"featurecla":"Airport","type":"major and military","name":"Townsville","abbrev":"TSV","location":"terminal","gps_code":"YBTL","iata_code":"TSV","wikipedia":"http://en.wikipedia.org/wiki/Townsville_Airport","natlscale":15}},
{"type":"Feature","geometry":{"type":"Point","coordinates":[122.23385051502184,-17.95257612926801]},"properties":{"scalerank":6,"featurecla":"Airport","type":"mid","name":"Broome Int'l","abbrev":"BME","location":"terminal","gps_code":"YBRM","iata_code":"BME","wikipedia":"http://en.wikipedia.org/wiki/Broome_International_Airport","natlscale":20}},
{"type":"Feature","geometry":{"type":"Point","coordinates":[145.75358484439977,-16.876742155406177]},"properties":{"scalerank":6,"featurecla":"Airport","type":"mid","name":"Cairns Int'l","abbrev":"CNS","location":"terminal","gps_code":"YBCS","iata_code":"CNS","wikipedia":"http://en.wikipedia.org/wiki/Cairns_International_Airport","natlscale":20}},
{"type":"Feature","geometry":{"type":"Point","coordinates":[118.63179781561529,-20.378127296072336]},"properties":{"scalerank":6,"featurecla":"Airport","type":"mid","name":"Port Hedland Int'l","abbrev":"PHE","location":"terminal","gps_code":"YPPD","iata_code":"PHE","wikipedia":"http://en.wikipedia.org/wiki/Port_Hedland_International_Airport","natlscale":20}},
{"type":"Feature","geometry":{"type":"Point","coordinates":[149.19076053967132,-35.3071855902909]},"properties":{"scalerank":5,"featurecla":"Airport","type":"major","name":"Canberra Int'l","abbrev":"CBR","location":"terminal","gps_code":"YSCB","iata_code":"CBR","wikipedia":"http://en.wikipedia.org/wiki/Canberra_International_Airport","natlscale":30}},
{"type":"Feature","geometry":{"type":"Point","coordinates":[138.5321014576991,-34.9405860275154]},"properties":{"scalerank":4,"featurecla":"Airport","type":"mid","name":"Adelaide Int'l","abbrev":"ADL","location":"terminal","gps_code":"YPAD","iata_code":"ADL","wikipedia":"http://en.wikipedia.org/wiki/Adelaide_International_Airport","natlscale":50}},
{"type":"Feature","geometry":{"type":"Point","coordinates":[153.1202564188439,-27.38539659390988]},"properties":{"scalerank":4,"featurecla":"Airport","type":"major","name":"Brisbane Int'l","abbrev":"BNE","location":"terminal","gps_code":"YBBN","iata_code":"BNE","wikipedia":"http://en.wikipedia.org/wiki/Brisbane_Airport","natlscale":50}},
{"type":"Feature","geometry":{"type":"Point","coordinates":[130.8775014367739,-12.40805599665558]},"properties":{"scalerank":4,"featurecla":"Airport","type":"major and military","name":"Darwin Int'l","abbrev":"DRW","location":"terminal","gps_code":"YPDN","iata_code":"DRW","wikipedia":"http://en.wikipedia.org/wiki/Darwin_International_Airport","natlscale":50}},
{"type":"Feature","geometry":{"type":"Point","coordinates":[115.9742249422326,-31.941129794578288]},"properties":{"scalerank":4,"featurecla":"Airport","type":"major","name":"Perth Int'l","abbrev":"PER","location":"terminal","gps_code":"YPPH","iata_code":"PER","wikipedia":"http://en.wikipedia.org/wiki/Perth_Airport","natlscale":50}},
{"type":"Feature","geometry":{"type":"Point","coordinates":[144.84899809113125,-37.66994119678927]},"properties":{"scalerank":2,"featurecla":"Airport","type":"major","name":"Melbourne Int'l","abbrev":"MEL","location":"terminal","gps_code":"YMML","iata_code":"MEL","wikipedia":"http://en.wikipedia.org/wiki/Melbourne_Airport","natlscale":150}},
{"type":"Feature","geometry":{"type":"Point","coordinates":[151.16606730560102,-33.936583205771655]},"properties":{"scalerank":2,"featurecla":"Airport","type":"major","name":"Kingsford Smith","abbrev":"SYD","location":"terminal","gps_code":"YSSY","iata_code":"SYD","wikipedia":"http://en.wikipedia.org/wiki/Kingsford_Smith_International_Airport","natlscale":150}}
]}